[{"Name":"北京市","Code":"110000","children":[{"Name":"北京SAZ9010","Province":"北京","Code":"北京SAZ9010","Type":"SA","Height":0,"Latitude":39.80889,"Longitude":116.4719}]},{"Name":"天津市","Code":"120000","children":[{"Name":"塘沽Z9220","Province":"天津","Code":"塘沽Z9220","Type":"SA","Height":0,"Latitude":39.04389,"Longitude":117.7169}]},{"Name":"河北省","Code":"130000","children":[{"Name":"沧州Z9317","Province":"河北","Code":"沧州Z9317","Type":"SA","Height":0,"Latitude":38.30583,"Longitude":116.8058},{"Name":"承德Z9314","Province":"河北","Code":"承德Z9314","Type":"CB","Height":0,"Latitude":40.97583,"Longitude":117.9178},{"Name":"秦皇岛Z9335","Province":"河北","Code":"秦皇岛Z9335","Type":"SA","Height":0,"Latitude":39.88083,"Longitude":118.8808},{"Name":"石家庄Z9311","Province":"河北","Code":"石家庄Z9311","Type":"SA","Height":0,"Latitude":38.35194,"Longitude":114.7119},{"Name":"张家口Z9313","Province":"河北","Code":"张家口Z9313","Type":"CB","Height":0,"Latitude":41.15472,"Longitude":114.6939},{"Name":"邯郸Z9023","Province":"河北","Code":"邯郸Z9023","Type":"SA","Height":0,"Latitude":36.61195,"Longitude":114.4928}]},{"Name":"山西省","Code":"140000","children":[{"Name":"大同Z9352","Province":"山西","Code":"大同Z9352","Type":"CB","Height":0,"Latitude":40.07195,"Longitude":113.3897},{"Name":"临汾Z9357","Province":"山西","Code":"临汾Z9357","Type":"CC","Height":0,"Latitude":36.06194,"Longitude":111.4939},{"Name":"太原Z9351","Province":"山西","Code":"太原Z9351","Type":"CC","Height":0,"Latitude":37.735,"Longitude":112.5789},{"Name":"长治Z9355","Province":"山西","Code":"长治Z9355","Type":"CC","Height":0,"Latitude":36.22389,"Longitude":113.055},{"Name":"吕梁Z9358","Province":"山西","Code":"吕梁Z9358","Type":"CC","Height":0,"Latitude":37.51833,"Longitude":111.1439},{"Name":"五寨Z9350","Province":"山西","Code":"五寨Z9350","Type":"CC","Height":0,"Latitude":38.91056,"Longitude":111.8469}]},{"Name":"内蒙古自治区","Code":"150000","children":[{"Name":"赤峰Z9476","Province":"内蒙古","Code":"赤峰Z9476","Type":"CD","Height":0,"Latitude":42.23278,"Longitude":118.9658},{"Name":"鄂尔多斯Z9477","Province":"内蒙古","Code":"鄂尔多斯Z9477","Type":"CB","Height":0,"Latitude":39.81694,"Longitude":110.05},{"Name":"海拉尔Z9470","Province":"内蒙古","Code":"海拉尔Z9470","Type":"CD","Height":0,"Latitude":49.20389,"Longitude":119.7528},{"Name":"呼和浩特Z9471","Province":"内蒙古","Code":"呼和浩特Z9471","Type":"CD","Height":0,"Latitude":40.98195,"Longitude":111.6997},{"Name":"临河Z9478","Province":"内蒙古","Code":"临河Z9478","Type":"CD","Height":0,"Latitude":40.735,"Longitude":107.3689},{"Name":"通辽Z9475","Province":"内蒙古","Code":"通辽Z9475","Type":"CB","Height":0,"Latitude":43.61972,"Longitude":122.2608},{"Name":"锡林浩特Z9479","Province":"内蒙古","Code":"锡林浩特Z9479","Type":"CD","Height":0,"Latitude":43.93528,"Longitude":116.0478},{"Name":"满洲里Z9021","Province":"内蒙古","Code":"满洲里Z9021","Type":"CB","Height":0,"Latitude":49.58778,"Longitude":117.48},{"Name":"霍林郭勒Z9020","Province":"内蒙古","Code":"霍林郭勒Z9020","Type":"CB","Height":0,"Latitude":45.53139,"Longitude":119.6639},{"Name":"乌兰察布Z9474","Province":"内蒙古","Code":"乌兰察布Z9474","Type":"CB","Height":1549.55,"Latitude":41.01,"Longitude":113.08}]},{"Name":"辽宁省","Code":"210000","children":[{"Name":"大连Z9411","Province":"辽宁","Code":"大连Z9411","Type":"SA","Height":0,"Latitude":38.90972,"Longitude":121.6489},{"Name":"丹东Z9415","Province":"辽宁","Code":"丹东Z9415","Type":"RD784250","Height":0,"Latitude":39.87583,"Longitude":124.1569},{"Name":"沈阳Z9240","Province":"辽宁","Code":"沈阳Z9240","Type":"SC","Height":0,"Latitude":41.92472,"Longitude":123.6469},{"Name":"营口Z9417","Province":"辽宁","Code":"营口Z9417","Type":"SA","Height":0,"Latitude":40.67278,"Longitude":122.2719}]},{"Name":"吉林省","Code":"220000","children":[{"Name":"白城Z9436","Province":"吉林","Code":"白城Z9436","Type":"CC","Height":0,"Latitude":45.81472,"Longitude":122.8139},{"Name":"白山Z9439","Province":"吉林","Code":"白山Z9439","Type":"CC","Height":0,"Latitude":41.96889,"Longitude":126.1989},{"Name":"延吉Z9433","Province":"吉林","Code":"延吉Z9433","Type":"CC","Height":0,"Latitude":42.83889,"Longitude":129.46},{"Name":"长春Z9431","Province":"吉林","Code":"长春Z9431","Type":"CC","Height":0,"Latitude":43.89889,"Longitude":125.2458},{"Name":"吉林市Z9432","Province":"吉林","Code":"吉林市Z9432","Type":"CC","Height":0,"Latitude":43.86278,"Longitude":126.5419},{"Name":"松原Z9438","Province":"吉林","Code":"松原Z9438","Type":"CC","Height":0,"Latitude":45.13472,"Longitude":124.8178}]},{"Name":"黑龙江省","Code":"230000","children":[{"Name":"哈尔滨Z9451","Province":"黑龙江","Code":"哈尔滨Z9451","Type":"CA","Height":0,"Latitude":45.72389,"Longitude":126.7278},{"Name":"加格达奇Z9457","Province":"黑龙江","Code":"加格达奇Z9457","Type":"CC","Height":0,"Latitude":50.40778,"Longitude":124.1178},{"Name":"佳木斯Z9454","Province":"黑龙江","Code":"佳木斯Z9454","Type":"CC","Height":0,"Latitude":46.79583,"Longitude":130.3178},{"Name":"建三江Z9085","Province":"黑龙江","Code":"建三江Z9085","Type":"CC","Height":0,"Latitude":47.23278,"Longitude":132.625},{"Name":"九三分局Z9084","Province":"黑龙江","Code":"九三分局Z9084","Type":"CC","Height":0,"Latitude":48.86778,"Longitude":125.2919},{"Name":"牡丹江Z9453","Province":"黑龙江","Code":"牡丹江Z9453","Type":"CC","Height":0,"Latitude":44.59083,"Longitude":129.6},{"Name":"齐齐哈尔Z9452","Province":"黑龙江","Code":"齐齐哈尔Z9452","Type":"CC","Height":0,"Latitude":47.36694,"Longitude":123.9339},{"Name":"伊春Z9458","Province":"黑龙江","Code":"伊春Z9458","Type":"CC","Height":0,"Latitude":47.70083,"Longitude":128.9139}]},{"Name":"上海市","Code":"310000","children":[{"Name":"南汇Z9210","Province":"上海","Code":"南汇Z9210","Type":"UNKNOWN","Height":0,"Latitude":31.00083,"Longitude":121.885},{"Name":"青浦Z9002","Province":"上海","Code":"青浦Z9002","Type":"SA","Height":0,"Latitude":31.075,"Longitude":120.9589}]},{"Name":"江苏省","Code":"320000","children":[{"Name":"常州Z9519","Province":"江苏","Code":"常州Z9519","Type":"SA","Height":0,"Latitude":31.90083,"Longitude":119.7797},{"Name":"连云港Z9518","Province":"江苏","Code":"连云港Z9518","Type":"SA","Height":0,"Latitude":34.65083,"Longitude":119.2939},{"Name":"南京Z9250","Province":"江苏","Code":"南京Z9250","Type":"SA","Height":0,"Latitude":32.19083,"Longitude":118.6978},{"Name":"南通Z9513","Province":"江苏","Code":"南通Z9513","Type":"SA","Height":0,"Latitude":32.07583,"Longitude":120.9758},{"Name":"徐州Z9516","Province":"江苏","Code":"徐州Z9516","Type":"SA","Height":0,"Latitude":34.29278,"Longitude":117.1519},{"Name":"盐城Z9515","Province":"江苏","Code":"盐城Z9515","Type":"SA","Height":0,"Latitude":33.43083,"Longitude":120.2008},{"Name":"泰州Z9523","Province":"江苏","Code":"泰州Z9523","Type":"SA","Height":0,"Latitude":32.55695,"Longitude":119.9939},{"Name":"淮安Z9517","Province":"江苏","Code":"淮安Z9517","Type":"SA","Height":0,"Latitude":33.61028,"Longitude":119.015}]},{"Name":"浙江省","Code":"330000","children":[{"Name":"杭州Z9571","Province":"浙江","Code":"杭州Z9571","Type":"SA","Height":0,"Latitude":30.27389,"Longitude":120.3378},{"Name":"金华Z9579","Province":"浙江","Code":"金华Z9579","Type":"SB","Height":0,"Latitude":29.20694,"Longitude":119.6439},{"Name":"宁波Z9574","Province":"浙江","Code":"宁波Z9574","Type":"SA","Height":0,"Latitude":30.07583,"Longitude":121.5089},{"Name":"衢州Z9570","Province":"浙江","Code":"衢州Z9570","Type":"SB","Height":0,"Latitude":29.08583,"Longitude":118.7019},{"Name":"温州Z9577","Province":"浙江","Code":"温州Z9577","Type":"SA","Height":0,"Latitude":27.895,"Longitude":120.7428},{"Name":"舟山Z9580","Province":"浙江","Code":"舟山Z9580","Type":"SB","Height":0,"Latitude":30.06889,"Longitude":122.1089},{"Name":"台州Z9576","Province":"浙江","Code":"台州Z9576","Type":"SA","Height":0,"Latitude":28.61806,"Longitude":121.5239},{"Name":"丽水Z9578","Province":"浙江","Code":"丽水Z9578","Type":"SA","Height":0,"Latitude":28.46361,"Longitude":119.9228},{"Name":"湖州Z9572","Province":"浙江","Code":"湖州Z9572","Type":"SA","Height":0,"Latitude":30.89417,"Longitude":120.0869}]},{"Name":"安徽省","Code":"340000","children":[{"Name":"蚌埠Z9552","Province":"安徽","Code":"蚌埠Z9552","Type":"SA","Height":0,"Latitude":32.91778,"Longitude":117.4478},{"Name":"阜阳Z9558","Province":"安徽","Code":"阜阳Z9558","Type":"SB","Height":0,"Latitude":32.87889,"Longitude":115.7408},{"Name":"合肥Z9551","Province":"安徽","Code":"合肥Z9551","Type":"SA","Height":0,"Latitude":31.86695,"Longitude":117.2578},{"Name":"黄山Z9559","Province":"安徽","Code":"黄山Z9559","Type":"SA","Height":0,"Latitude":30.13778,"Longitude":118.165},{"Name":"马鞍山Z9555","Province":"安徽","Code":"马鞍山Z9555","Type":"CC","Height":0,"Latitude":31.70083,"Longitude":118.5158},{"Name":"铜陵Z9562","Province":"安徽","Code":"铜陵Z9562","Type":"SA","Height":0,"Latitude":30.57195,"Longitude":118.0139},{"Name":"宣城Z9563","Province":"安徽","Code":"宣城Z9563","Type":"SA","Height":0,"Latitude":30.94056,"Longitude":118.7589}]},{"Name":"福建省","Code":"350000","children":[{"Name":"福州Z9591","Province":"福建","Code":"福州Z9591","Type":"SA","Height":0,"Latitude":25.98195,"Longitude":119.5319},{"Name":"建阳Z9599","Province":"福建","Code":"建阳Z9599","Type":"SA","Height":0,"Latitude":27.35,"Longitude":118.1008},{"Name":"龙岩Z9597","Province":"福建","Code":"龙岩Z9597","Type":"SA","Height":0,"Latitude":25.05778,"Longitude":117.1819},{"Name":"宁德Z9593","Province":"福建","Code":"宁德Z9593","Type":"CCJ","Height":0,"Latitude":26.56389,"Longitude":119.6778},{"Name":"厦门Z9592","Province":"福建","Code":"厦门Z9592","Type":"SA","Height":0,"Latitude":24.48195,"Longitude":118.0789},{"Name":"东山Z9596","Province":"福建","Code":"东山Z9596","Type":"SA","Height":0,"Latitude":23.59945,"Longitude":117.4},{"Name":"泉州Z9595","Province":"福建","Code":"泉州Z9595","Type":"SA","Height":0,"Latitude":24.90722,"Longitude":118.5869},{"Name":"三明Z9598","Province":"福建","Code":"三明Z9598","Type":"SA","Height":0,"Latitude":26.26306,"Longitude":117.6378}]},{"Name":"江西省","Code":"360000","children":[{"Name":"赣州Z9797","Province":"江西","Code":"赣州Z9797","Type":"SC","Height":0,"Latitude":25.87972,"Longitude":114.9689},{"Name":"吉安Z9796","Province":"江西","Code":"吉安Z9796","Type":"SC","Height":0,"Latitude":27.04278,"Longitude":114.9139},{"Name":"九江Z9792","Province":"江西","Code":"九江Z9792","Type":"SA","Height":0,"Latitude":29.53472,"Longitude":115.9539},{"Name":"南昌Z9791","Province":"江西","Code":"南昌Z9791","Type":"SA","Height":0,"Latitude":28.59083,"Longitude":115.8989},{"Name":"上饶Z9793","Province":"江西","Code":"上饶Z9793","Type":"SA","Height":0,"Latitude":28.44278,"Longitude":117.9769},{"Name":"景德镇Z9798","Province":"江西","Code":"景德镇Z9798","Type":"SA","Height":0,"Latitude":29.30667,"Longitude":117.1808},{"Name":"抚州Z9794","Province":"江西","Code":"抚州Z9794","Type":"SA","Height":0,"Latitude":27.94917,"Longitude":116.3578},{"Name":"宜春Z9795","Province":"江西","Code":"宜春Z9795","Type":"SA","Height":0,"Latitude":27.79639,"Longitude":114.3947}]},{"Name":"山东省","Code":"370000","children":[{"Name":"滨州Z9543","Province":"山东","Code":"滨州Z9543","Type":"SA","Height":0,"Latitude":37.36972,"Longitude":118},{"Name":"济南Z9531","Province":"山东","Code":"济南Z9531","Type":"SA","Height":0,"Latitude":36.80278,"Longitude":116.7808},{"Name":"临沂Z9539","Province":"山东","Code":"临沂Z9539","Type":"SC","Height":0,"Latitude":35.05083,"Longitude":118.3478},{"Name":"青岛Z9532","Province":"山东","Code":"青岛Z9532","Type":"SA","Height":0,"Latitude":35.98889,"Longitude":120.23},{"Name":"泰安Z9538","Province":"山东","Code":"泰安Z9538","Type":"CD","Height":0,"Latitude":36.25583,"Longitude":117.1058},{"Name":"烟台Z9535","Province":"山东","Code":"烟台Z9535","Type":"SA","Height":0,"Latitude":37.49889,"Longitude":121.3878},{"Name":"荣成Z9631","Province":"山东","Code":"荣成Z9631","Type":"SA","Height":0,"Latitude":37.16472,"Longitude":122.4858},{"Name":"潍坊Z9536","Province":"山东","Code":"潍坊Z9536","Type":"SA","Height":0,"Latitude":36.66917,"Longitude":118.9189}]},{"Name":"河南省","Code":"410000","children":[{"Name":"洛阳Z9379","Province":"河南","Code":"洛阳Z9379","Type":"SB","Height":0,"Latitude":34.64278,"Longitude":112.4519},{"Name":"南阳Z9377","Province":"河南","Code":"南阳Z9377","Type":"SB","Height":0,"Latitude":33.02083,"Longitude":112.4928},{"Name":"濮阳Z9393","Province":"河南","Code":"濮阳Z9393","Type":"SB","Height":0,"Latitude":35.79694,"Longitude":114.9578},{"Name":"三门峡Z9398","Province":"河南","Code":"三门峡Z9398","Type":"SB","Height":0,"Latitude":34.67889,"Longitude":111.1289},{"Name":"商丘Z9370","Province":"河南","Code":"商丘Z9370","Type":"SB","Height":0,"Latitude":34.40694,"Longitude":115.6297},{"Name":"郑州Z9371","Province":"河南","Code":"郑州Z9371","Type":"SA","Height":0,"Latitude":34.70389,"Longitude":113.6969},{"Name":"驻马店Z9396","Province":"河南","Code":"驻马店Z9396","Type":"SB","Height":0,"Latitude":33.00972,"Longitude":114.0197},{"Name":"信阳Z9376","Province":"河南","Code":"信阳Z9376","Type":"SA","Height":0,"Latitude":32.12305,"Longitude":114.0697},{"Name":"平顶山Z9375","Province":"河南","Code":"平顶山Z9375","Type":"SA","Height":0,"Latitude":33.77056,"Longitude":113.1158}]},{"Name":"湖北省","Code":"420000","children":[{"Name":"恩施Z9718","Province":"湖北","Code":"恩施Z9718","Type":"SB","Height":0,"Latitude":30.28695,"Longitude":109.2569},{"Name":"荆州Z9716","Province":"湖北","Code":"荆州Z9716","Type":"SA","Height":0,"Latitude":30.35194,"Longitude":112.1478},{"Name":"十堰Z9719","Province":"湖北","Code":"十堰Z9719","Type":"SB","Height":0,"Latitude":32.59889,"Longitude":110.7439},{"Name":"随州Z9722","Province":"湖北","Code":"随州Z9722","Type":"SB","Height":0,"Latitude":31.72583,"Longitude":113.3889},{"Name":"武汉Z9270","Province":"湖北","Code":"武汉Z9270","Type":"SA","Height":0,"Latitude":30.51694,"Longitude":114.3778},{"Name":"宜昌Z9717","Province":"湖北","Code":"宜昌Z9717","Type":"SA","Height":0,"Latitude":30.70194,"Longitude":111.2958},{"Name":"麻城Z9713","Province":"湖北","Code":"麻城Z9713","Type":"SA","Height":0,"Latitude":31.17167,"Longitude":115.01},{"Name":"襄阳Z9710","Province":"湖北","Code":"襄阳Z9710","Type":"SA","Height":0,"Latitude":32.00834,"Longitude":112.1219}]},{"Name":"湖南省","Code":"430000","children":[{"Name":"常德Z9736","Province":"湖南","Code":"常德Z9736","Type":"SB","Height":0,"Latitude":29.18083,"Longitude":111.7069},{"Name":"怀化Z9745","Province":"湖南","Code":"怀化Z9745","Type":"CB","Height":0,"Latitude":27.56583,"Longitude":110.0028},{"Name":"邵阳Z9739","Province":"湖南","Code":"邵阳Z9739","Type":"SA","Height":0,"Latitude":27.20694,"Longitude":111.4469},{"Name":"永州Z9746","Province":"湖南","Code":"永州Z9746","Type":"SB","Height":0,"Latitude":26.22583,"Longitude":111.6158},{"Name":"岳阳Z9730","Province":"湖南","Code":"岳阳Z9730","Type":"SA","Height":0,"Latitude":29.29889,"Longitude":113.1028},{"Name":"长沙Z9731","Province":"湖南","Code":"长沙Z9731","Type":"SA","Height":0,"Latitude":28.45972,"Longitude":113.0119},{"Name":"郴州Z9735","Province":"湖南","Code":"郴州Z9735","Type":"SA","Height":0,"Latitude":25.73389,"Longitude":112.975},{"Name":"安化Z9737","Province":"湖南","Code":"安化Z9737","Type":"SA","Height":0,"Latitude":28.37917,"Longitude":111.2119},{"Name":"衡阳Z9734","Province":"湖南","Code":"衡阳Z9734","Type":"SA","Height":0,"Latitude":26.89389,"Longitude":112.5719},{"Name":"张家界Z9744","Province":"湖南","Code":"张家界Z9744","Type":"SA","Height":0,"Latitude":29.11639,"Longitude":110.4789}]},{"Name":"广东省","Code":"440000","children":[{"Name":"广州Z9200","Province":"广东","Code":"广州Z9200","Type":"SA","Height":0,"Latitude":23.00389,"Longitude":113.355},{"Name":"河源Z9762","Province":"广东","Code":"河源Z9762","Type":"SA","Height":0,"Latitude":23.69,"Longitude":114.6069},{"Name":"梅州Z9753","Province":"广东","Code":"梅州Z9753","Type":"SA","Height":0,"Latitude":24.25778,"Longitude":115.9928},{"Name":"汕头Z9754","Province":"广东","Code":"汕头Z9754","Type":"SA","Height":0,"Latitude":23.29389,"Longitude":116.6997},{"Name":"汕尾Z9660","Province":"广东","Code":"汕尾Z9660","Type":"SA","Height":0,"Latitude":22.81778,"Longitude":115.3558},{"Name":"韶关Z9751","Province":"广东","Code":"韶关Z9751","Type":"SA","Height":0,"Latitude":24.79083,"Longitude":113.5658},{"Name":"深圳Z9755","Province":"广东","Code":"深圳Z9755","Type":"SA","Height":0,"Latitude":22.54194,"Longitude":114.0047},{"Name":"阳江Z9662","Province":"广东","Code":"阳江Z9662","Type":"SA","Height":0,"Latitude":21.84472,"Longitude":111.9789},{"Name":"湛江Z9759","Province":"广东","Code":"湛江Z9759","Type":"SA","Height":0,"Latitude":21.01194,"Longitude":110.5258},{"Name":"肇庆Z9758","Province":"广东","Code":"肇庆Z9758","Type":"SA","Height":0,"Latitude":22.92778,"Longitude":112.5628},{"Name":"连州Z9763","Province":"广东","Code":"连州Z9763","Type":"SA","Height":0,"Latitude":24.73195,"Longitude":112.4019}]},{"Name":"广西壮族自治区","Code":"450000","children":[{"Name":"百色Z9776","Province":"广西","Code":"百色Z9776","Type":"SB","Height":0,"Latitude":23.90278,"Longitude":106.6028},{"Name":"北海Z9779","Province":"广西","Code":"北海Z9779","Type":"SB","Height":0,"Latitude":21.44695,"Longitude":109.0419},{"Name":"桂林Z9773","Province":"广西","Code":"桂林Z9773","Type":"SB","Height":0,"Latitude":25.31694,"Longitude":110.3},{"Name":"河池Z9778","Province":"广西","Code":"河池Z9778","Type":"SB","Height":0,"Latitude":24.98889,"Longitude":107.5078},{"Name":"柳州Z9772","Province":"广西","Code":"柳州Z9772","Type":"SB","Height":0,"Latitude":24.35695,"Longitude":109.4558},{"Name":"南宁Z9771","Province":"广西","Code":"南宁Z9771","Type":"SA","Height":0,"Latitude":22.80972,"Longitude":108.4},{"Name":"梧州Z9774","Province":"广西","Code":"梧州Z9774","Type":"SB","Height":0,"Latitude":23.46972,"Longitude":111.3039},{"Name":"崇左Z9075","Province":"广西","Code":"崇左Z9075","Type":"SB","Height":0,"Latitude":22.37722,"Longitude":107.3647},{"Name":"防城港Z9770","Province":"广西","Code":"防城港Z9770","Type":"SA","Height":0,"Latitude":21.61528,"Longitude":108.3469},{"Name":"玉林Z9775","Province":"广西","Code":"玉林Z9775","Type":"SA","Height":0,"Latitude":22.63639,"Longitude":110.165}]},{"Name":"海南省","Code":"460000","children":[{"Name":"海口Z9898","Province":"海南","Code":"海口Z9898","Type":"SA","Height":0,"Latitude":19.99778,"Longitude":110.2469},{"Name":"三亚Z9070","Province":"海南","Code":"三亚Z9070","Type":"SC","Height":0,"Latitude":18.22778,"Longitude":109.4969},{"Name":"西沙Z9071","Province":"海南","Code":"西沙Z9071","Type":"SC","Height":0,"Latitude":16.83389,"Longitude":112.3328},{"Name":"万宁Z9073","Province":"海南","Code":"万宁Z9073","Type":"SA","Height":0,"Latitude":18.795,"Longitude":110.3908},{"Name":"东方Z9072","Province":"海南","Code":"东方Z9072","Type":"SA","Height":0,"Latitude":19.09528,"Longitude":108.6519}]},{"Name":"重庆市","Code":"500000","children":[{"Name":"黔江Z9091","Province":"重庆","Code":"黔江Z9091","Type":"CD","Height":0,"Latitude":29.59194,"Longitude":108.7278},{"Name":"万州Z9090","Province":"重庆","Code":"万州Z9090","Type":"SB","Height":0,"Latitude":30.80278,"Longitude":108.6828},{"Name":"重庆Z9230","Province":"重庆","Code":"重庆Z9230","Type":"SA","Height":0,"Latitude":29.52194,"Longitude":106.4889},{"Name":"永川Z9092","Province":"重庆","Code":"永川Z9092","Type":"SA","Height":0,"Latitude":29.23806,"Longitude":105.83}]},{"Name":"四川省","Code":"510000","children":[{"Name":"成都Z9280","Province":"四川","Code":"成都Z9280","Type":"SC","Height":0,"Latitude":30.66278,"Longitude":104.0158},{"Name":"达州Z9818","Province":"四川","Code":"达州Z9818","Type":"SC","Height":0,"Latitude":31.17,"Longitude":107.5297},{"Name":"广元Z9839","Province":"四川","Code":"广元Z9839","Type":"SC","Height":0,"Latitude":32.40583,"Longitude":105.8228},{"Name":"绵阳Z9816","Province":"四川","Code":"绵阳Z9816","Type":"SC","Height":0,"Latitude":31.45194,"Longitude":104.7647},{"Name":"南充Z9817","Province":"四川","Code":"南充Z9817","Type":"SC","Height":0,"Latitude":30.82195,"Longitude":106.0778},{"Name":"西昌Z9834","Province":"四川","Code":"西昌Z9834","Type":"CD","Height":0,"Latitude":27.87972,"Longitude":102.4108},{"Name":"宜宾Z9831","Province":"四川","Code":"宜宾Z9831","Type":"SC","Height":0,"Latitude":28.81972,"Longitude":104.5778},{"Name":"阿坝Z9837","Province":"四川","Code":"阿坝Z9837","Type":"CC","Height":0,"Latitude":31.89944,"Longitude":102.2239},{"Name":"甘孜Z9836","Province":"四川","Code":"甘孜Z9836","Type":"CC","Height":0,"Latitude":30.04944,"Longitude":101.9619}]},{"Name":"贵州省","Code":"520000","children":[{"Name":"毕节Z9857","Province":"贵州","Code":"毕节Z9857","Type":"CD","Height":0,"Latitude":27.30389,"Longitude":105.3008},{"Name":"都匀Z9854","Province":"贵州","Code":"都匀Z9854","Type":"CD","Height":0,"Latitude":26.32278,"Longitude":107.5147},{"Name":"贵阳Z9851","Province":"贵州","Code":"贵阳Z9851","Type":"CD","Height":0,"Latitude":26.59,"Longitude":106.7258},{"Name":"兴义Z9859","Province":"贵州","Code":"兴义Z9859","Type":"CD","Height":0,"Latitude":25.08778,"Longitude":104.8958},{"Name":"遵义Z9852","Province":"贵州","Code":"遵义Z9852","Type":"CD","Height":0,"Latitude":27.68278,"Longitude":106.9128},{"Name":"六盘水Z9858","Province":"贵州","Code":"六盘水Z9858","Type":"CD","Height":0,"Latitude":26.59278,"Longitude":104.8297},{"Name":"铜仁Z9856","Province":"贵州","Code":"铜仁Z9856","Type":"CD","Height":0,"Latitude":27.73139,"Longitude":109.1978}]},{"Name":"云南省","Code":"530000","children":[{"Name":"德宏Z9692","Province":"云南","Code":"德宏Z9692","Type":"CC","Height":0,"Latitude":24.48889,"Longitude":98.34389},{"Name":"昆明Z9871","Province":"云南","Code":"昆明Z9871","Type":"CC","Height":0,"Latitude":25.05194,"Longitude":102.5778},{"Name":"丽江Z9888","Province":"云南","Code":"丽江Z9888","Type":"CC","Height":0,"Latitude":26.72778,"Longitude":100.0419},{"Name":"思茅Z9879","Province":"云南","Code":"思茅Z9879","Type":"CC","Height":0,"Latitude":22.825,"Longitude":101.0197},{"Name":"文山Z9876","Province":"云南","Code":"文山Z9876","Type":"CC","Height":0,"Latitude":23.46694,"Longitude":104.25},{"Name":"昭通Z9870","Province":"云南","Code":"昭通Z9870","Type":"CC","Height":0,"Latitude":27.35278,"Longitude":103.72},{"Name":"大理Z9872","Province":"云南","Code":"大理Z9872","Type":"CC","Height":0,"Latitude":25.60806,"Longitude":100.3981}]},{"Name":"西藏自治区","Code":"540000","children":[{"Name":"拉萨Z9891","Province":"西藏","Code":"拉萨Z9891","Type":"CD","Height":0,"Latitude":29.66583,"Longitude":91.135},{"Name":"林芝Z9894","Province":"西藏","Code":"林芝Z9894","Type":"CD","Height":0,"Latitude":29.63278,"Longitude":94.39584},{"Name":"那曲Z9896","Province":"西藏","Code":"那曲Z9896","Type":"CD","Height":0,"Latitude":31.48083,"Longitude":92.06084},{"Name":"日喀则Z9892","Province":"西藏","Code":"日喀则Z9892","Type":"CD","Height":0,"Latitude":29.25694,"Longitude":88.89278}]},{"Name":"陕西省","Code":"610000","children":[{"Name":"安康Z9915","Province":"陕西","Code":"安康Z9915","Type":"CB","Height":0,"Latitude":32.72472,"Longitude":109.0369},{"Name":"宝鸡Z9917","Province":"陕西","Code":"宝鸡Z9917","Type":"CB","Height":0,"Latitude":34.53278,"Longitude":107.2328},{"Name":"汉中Z9916","Province":"陕西","Code":"汉中Z9916","Type":"CB","Height":0,"Latitude":33.13,"Longitude":107.4739},{"Name":"西安Z9290","Province":"陕西","Code":"西安Z9290","Type":"CB","Height":0,"Latitude":34.44472,"Longitude":108.9728},{"Name":"延安Z9911","Province":"陕西","Code":"延安Z9911","Type":"CB","Height":0,"Latitude":36.60889,"Longitude":109.4878},{"Name":"榆林Z9912","Province":"陕西","Code":"榆林Z9912","Type":"CB","Height":0,"Latitude":38.27195,"Longitude":109.7808},{"Name":"商州Z9914","Province":"陕西","Code":"商州Z9914","Type":"CB","Height":0,"Latitude":33.87028,"Longitude":109.9397}]},{"Name":"甘肃省","Code":"620000","children":[{"Name":"酒泉Z9937","Province":"甘肃","Code":"酒泉Z9937","Type":"CC","Height":0,"Latitude":39.76389,"Longitude":98.29778},{"Name":"兰州Z9931","Province":"甘肃","Code":"兰州Z9931","Type":"CC","Height":0,"Latitude":36.00972,"Longitude":103.8508},{"Name":"天水Z9938","Province":"甘肃","Code":"天水Z9938","Type":"CD","Height":0,"Latitude":34.60389,"Longitude":105.6389},{"Name":"西峰Z9934","Province":"甘肃","Code":"西峰Z9934","Type":"CD","Height":0,"Latitude":35.71583,"Longitude":107.6269},{"Name":"张掖Z9936","Province":"甘肃","Code":"张掖Z9936","Type":"CC","Height":0,"Latitude":39.08778,"Longitude":100.2769},{"Name":"甘南Z9941","Province":"甘肃","Code":"甘南Z9941","Type":"CD","Height":0,"Latitude":34.90805,"Longitude":102.8897}]},{"Name":"青海省","Code":"630000","children":[{"Name":"海北Z9970","Province":"青海","Code":"海北Z9970","Type":"CD","Height":0,"Latitude":36.95195,"Longitude":100.9047},{"Name":"西宁Z9971","Province":"青海","Code":"西宁Z9971","Type":"CD","Height":0,"Latitude":36.60583,"Longitude":101.7697}]},{"Name":"宁夏回族自治区","Code":"640000","children":[{"Name":"固原Z9954","Province":"宁夏","Code":"固原Z9954","Type":"CD","Height":0,"Latitude":35.68,"Longitude":106.2019},{"Name":"银川Z9951","Province":"宁夏","Code":"银川Z9951","Type":"CD","Height":0,"Latitude":38.47972,"Longitude":106.2147},{"Name":"吴忠Z9953","Province":"宁夏","Code":"吴忠Z9953","Type":"CC","Height":0,"Latitude":37.95917,"Longitude":106.2047}]},{"Name":"新疆维吾尔自治区","Code":"650000","children":[{"Name":"阿克苏Z9997","Province":"新疆","Code":"阿克苏Z9997","Type":"CC","Height":0,"Latitude":41.16278,"Longitude":80.235},{"Name":"喀什Z9998","Province":"新疆","Code":"喀什Z9998","Type":"CC","Height":0,"Latitude":39.45972,"Longitude":76.02695},{"Name":"克拉玛依Z9990","Province":"新疆","Code":"克拉玛依Z9990","Type":"CC","Height":0,"Latitude":45.47,"Longitude":84.96389},{"Name":"库尔勒Z9996","Province":"新疆","Code":"库尔勒Z9996","Type":"CC","Height":0,"Latitude":41.75972,"Longitude":86.20389},{"Name":"奎屯Z9992","Province":"新疆","Code":"奎屯Z9992","Type":"CC","Height":0,"Latitude":44.38194,"Longitude":84.10194},{"Name":"石河子Z9993","Province":"新疆","Code":"石河子Z9993","Type":"CC","Height":0,"Latitude":44.28583,"Longitude":85.97583},{"Name":"塔斯尔海Z9080","Province":"新疆","Code":"塔斯尔海Z9080","Type":"CC","Height":0,"Latitude":44.82695,"Longitude":82.34972},{"Name":"图木舒克Z9082","Province":"新疆","Code":"图木舒克Z9082","Type":"CC","Height":0,"Latitude":39.86972,"Longitude":79.08389},{"Name":"乌鲁木齐Z9991","Province":"新疆","Code":"乌鲁木齐Z9991","Type":"CC","Height":0,"Latitude":43.91583,"Longitude":87.39278},{"Name":"五家渠Z9081","Province":"新疆","Code":"五家渠Z9081","Type":"CC","Height":0,"Latitude":44.14778,"Longitude":87.555},{"Name":"伊宁Z9999","Province":"新疆","Code":"伊宁Z9999","Type":"CC","Height":0,"Latitude":43.94194,"Longitude":81.32472},{"Name":"和田Z9903","Province":"新疆","Code":"和田Z9903","Type":"CC","Height":0,"Latitude":37.02694,"Longitude":79.83195},{"Name":"阿拉尔Z9086","Province":"新疆","Code":"阿拉尔Z9086","Type":"CC","Height":0,"Latitude":40.55917,"Longitude":81.2675}]}]